Time,header.seq,header.stamp.secs,header.stamp.nsecs,header.frame_id,velocity.time_from_start.secs,velocity.time_from_start.nsecs,velocity.quantity
1623264196.4317398,0,1623264196,430631887,,0,0,"(-1.52497658994611e+70, -6.187081314681399e+26, -1.52497658994611e+70, -6.187081314681399e+26, -0.0008811997929391469, -5.293807865619084, 4.737184668862284)"
1623264196.4365513,1,1623264196,435562628,,0,0,"(-5.305514612605576e+70, -2.1525347038659186e+27, -5.305514612605576e+70, -2.1525347038659186e+27, -0.003086580433378363, -18.417492151061175, 16.481037717364057)"
1623264196.4415126,2,1623264196,440533130,,0,0,"(-8.512842852124199e+70, -3.4538006217562976e+27, -8.512842852124199e+70, -3.4538006217562976e+27, -0.004987186615564973, -29.551219145937008, 26.444268890791182)"
1623264196.4467201,3,1623264196,445478930,,0,0,"(-9.60121120800021e+70, -3.8953695981278585e+27, -9.60121120800021e+70, -3.8953695981278585e+27, -0.00565085840621706, -33.329223960227196, 29.825170540092735)"
1623264196.451644,4,1623264196,450548847,,0,0,"(-9.403482581712378e+70, -3.8151478362235455e+27, -9.403482581712378e+70, -3.8151478362235455e+27, -0.005549240173496142, -32.64277147068212, 29.21094738622326)"
1623264196.4561331,5,1623264196,455496782,,0,0,"(-8.497668797445397e+70, -3.447644257731423e+27, -8.497668797445397e+70, -3.447644257731423e+27, -0.005029259228964637, -29.498330517011105, 26.397130649807075)"
1623264196.4611979,6,1623264196,460543304,,0,0,"(-7.269329628070536e+70, -2.9492868158510166e+27, -7.269329628070536e+70, -2.9492868158510166e+27, -0.004312229686033292, -25.234315330595063, 22.581420915865)"
1623264196.4661138,7,1623264196,465525228,,0,0,"(-5.962996057383216e+70, -2.4192857601478483e+27, -5.962996057383216e+70, -2.4192857601478483e+27, -0.00354298967286005, -20.699569101375605, 18.523431203489388)"
1623264196.4720168,8,1623264196,470982423,,0,0,"(-4.723063968092628e+70, -1.91622487962674e+27, -4.723063968092628e+70, -1.91622487962674e+27, -0.002811043192427389, -16.395332819790557, 14.671715464233104)"
1623264196.47639,9,1623264196,475546651,,0,0,"(-3.625299220554115e+70, -1.470843632321725e+27, -3.625299220554115e+70, -1.470843632321725e+27, -0.002161946728312026, -12.584613011011365, 11.261627887485512)"
1623264196.4810429,10,1623264196,480503538,,0,0,"(-2.7003902468885966e+70, -1.0955928208355437e+27, -2.7003902468885966e+70, -1.0955928208355437e+27, -0.0016126413414990883, -9.373942117492968, 8.388497393114397)"
1623264196.4861796,11,1623264196,485481647,,0,0,"(-1.9510293041967535e+70, -7.915647382375953e+26, -1.9510293041967535e+70, -7.915647382375953e+26, -0.0011668446562138957, -6.772661731815129, 6.060687011043791)"
1623264196.4912717,12,1623264196,490530287,,0,0,"(-1.3639037780976513e+70, -5.5335823750510846e+26, -1.3639037780976513e+70, -5.5335823750510846e+26, -0.0008179076113741878, -4.734553347823242, 4.236840349153997)"
1623264196.4961061,13,1623264196,495506766,,0,0,"(-9.178060151859115e+69, -3.723690241867633e+26, -9.178060151859115e+69, -3.723690241867633e+26, -0.0005521669776355873, -3.185999739823112, 2.8510820255523854)"
1623264196.5016654,14,1623264196,500858515,,0,0,"(-5.888706276803677e+69, -2.3891451720020374e+26, -5.888706276803677e+69, -2.3891451720020374e+26, -0.00035662817326820735, -2.044157065310202, 1.8292789215788847)"
1623264196.5065465,15,1623264196,505760580,,0,0,"(-3.537505310589667e+69, -1.4352241963602044e+26, -3.537505310589667e+69, -1.4352241963602044e+26, -0.00021890594207136979, -1.2279785699442882, 1.0989029967438986)"
1623264196.5113888,16,1623264196,510586235,,0,0,"(-1.913630368953981e+69, -7.763913739410429e+25, -1.913630368953981e+69, -7.763913739410429e+25, -0.00012453423963862262, -0.6642774276401082, 0.5944620861455852)"
1623264196.5166614,17,1623264196,515681082,,0,0,"(-8.368258498632898e+68, -3.39514036704942e+25, -8.368258498632898e+68, -3.39514036704942e+25, -6.083008156357062e-05, -0.29048005153501, 0.25996392254536604)"
1623264196.5217156,18,1623264196,520854915,,0,0,"(-1.5929234505564607e+68, -6.462752924622281e+24, -1.5929234505564607e+68, -6.462752924622281e+24, -1.9790394793581018e-05, -0.055284414179842756, 0.04949734570946129)"
1623264196.5269885,19,1623264196,525969081,,0,0,"(2.3599292242100476e+68, 9.574621737371854e+24, 2.3599292242100476e+68, 9.574621737371854e+24, 5.009644666128228e-06, 0.08193090315293955, -0.07329232130734459)"
1623264196.5320292,20,1623264196,530984826,,0,0,"(4.38822559240939e+68, 1.7803754330656806e+25, 4.38822559240939e+68, 1.7803754330656806e+25, 1.6827448349797155e-05, 0.15233822032147876, -0.13629972990309502)"
1623264196.5362487,21,1623264196,535515825,,0,0,"(5.160579702516319e+68, 2.0937322225708013e+25, 5.160579702516319e+68, 2.0937322225708013e+25, 2.0330685832757587e-05, 0.1791459722686759, -0.16029264556545197)"
1623264196.5410967,22,1623264196,540506509,,0,0,"(5.159892416423359e+68, 2.093453379277616e+25, 5.159892416423359e+68, 2.093453379277616e+25, 2.058747434138123e-05, 0.17911769732628563, -0.1602707307747772)"
1623264196.54616,23,1623264196,545512481,,0,0,"(4.723610410997445e+68, 1.9164465805176507e+25, 4.723610410997445e+68, 1.9164465805176507e+25, 1.8993011425094384e-05, 0.16397143657580876, -0.1467180294367806)"
1623264196.5519679,24,1623264196,550995418,,0,0,"(4.078702016684145e+68, 1.6547966179908119e+25, 4.078702016684145e+68, 1.6547966179908119e+25, 1.648995927491904e-05, 0.14158701716443955, -0.1266859430600797)"
1623264196.5565932,25,1623264196,555715033,,0,0,"(3.370701022885838e+68, 1.3675489481980449e+25, 3.370701022885838e+68, 1.3675489481980449e+25, 1.1952669394223884e-05, 0.11701283674934183, -0.10469353135475624)"
1623264196.561174,26,1623264196,560462267,,0,0,"(2.686953898008129e+68, 1.0901414726873868e+25, 2.686953898008129e+68, 1.0901414726873868e+25, 4.918622120474068e-06, 0.09327893992637702, -0.08345314474053533)"
1623264196.5667565,27,1623264196,565945434,,0,0,"(2.0746364376543272e+68, 8.417141891090819e+24, 2.0746364376543272e+68, 8.417141891090819e+24, -1.1946237901193796e-06, 0.07202357034996006, -0.06443198477378304)"
1623264196.571979,28,1623264196,570968782,,0,0,"(1.554300687246518e+68, 6.306054009523634e+24, 1.554300687246518e+68, 6.306054009523634e+24, -4.538866640284023e-06, 0.05396059174231574, -0.04826834377277279)"
1623264196.576179,29,1623264196,575504501,,0,0,"(1.129758510339244e+68, 4.583616440741035e+24, 1.129758510339244e+68, 4.583616440741035e+24, -6.040105638369606e-06, 0.039222621771991664, -0.03508054075112407)"
1623264196.5813158,30,1623264196,580500031,,0,0,"(7.950657096025093e+67, 3.2257125966762486e+24, 7.950657096025093e+67, 3.2257125966762486e+24, -6.375886298895342e-06, 0.027603509702688173, -0.024683863922902227)"
1623264196.5862715,31,1623264196,585523707,,0,0,"(5.392821434771816e+67, 2.187956520281326e+24, 5.392821434771816e+67, 2.187956520281326e+24, -6.026499019585583e-06, 0.01872252011768499, -0.01673680412101706)"
1623264196.5920587,32,1623264196,591008325,,0,0,"(3.4957636730778195e+67, 1.418288926193015e+24, 3.4957636730778195e+67, 1.418288926193015e+24, -5.320496004645953e-06, 0.01213486180609124, -0.010842133085578352)"
1623264196.5967047,33,1623264196,595631189,,0,0,"(2.1313504765051902e+67, 8.64724009218289e+23, 2.1313504765051902e+67, 8.64724009218289e+23, -4.473161098373815e-06, 0.007398845594623232, -0.006603150265074869)"
1623264196.601225,34,1623264196,600535022,,0,0,"(1.1823749580989407e+67, 4.797090039565466e+23, 1.1823749580989407e+67, 4.797090039565466e+23, -3.61775834867385e-06, 0.004107505204295687, -0.0036547986898102)"
1623264196.6066532,35,1623264196,605789793,,0,0,"(5.476892471227704e+66, 2.2220655251139543e+23, 5.476892471227704e+66, 2.2220655251139543e+23, -2.8300711745646246e-06, 0.0019051133404850663, -0.00168177795503673)"
1623264196.6113362,36,1623264196,610581630,,0,0,"(1.4374035822882163e+66, 5.831783192124191e+22, 1.4374035822882163e+66, 5.831783192124191e+22, -3.882313876751699e-06, 0.0004986650475556297, -0.00042454466056301033)"
1623264196.6166017,37,1623264196,615719482,,0,0,"(-9.605063042413455e+65, -3.896932350821204e+22, -9.605063042413455e+65, -3.896932350821204e+22, -5.8825708708480805e-06, -0.0003376997903422976, 0.00032309480691821205)"
1623264196.6211905,38,1623264196,620532443,,0,0,"(-2.230723716181632e+66, -9.050413700509483e+22, -2.230723716181632e+66, -9.050413700509483e+22, -6.512884684086458e-06, -0.000777800106217448, 0.0007187642033961584)"
1623264196.6259499,39,1623264196,625475589,,0,0,"(-2.758117542372783e+66, -1.1190137358576097e+23, -2.758117542372783e+66, -1.1190137358576097e+23, -6.317910304976308e-06, -0.0009584887868291129, 0.0008826533015250304)"
1623264196.6313171,40,1623264196,630522544,,0,0,"(-2.822335144753424e+66, -1.145067875336356e+23, -2.822335144753424e+66, -1.145067875336356e+23, -5.67431004927932e-06, -0.0009793464195989793, 0.0009042451191837964)"
1623264196.636265,41,1623264196,635514907,,0,0,"(-2.6201016693592864e+66, -1.0630184219176353e+23, -2.6201016693592864e+66, -1.0630184219176353e+23, -4.832253328895608e-06, -0.0009072846395365439, 0.0008438203064816039)"
1623264196.6411397,42,1623264196,640537172,,0,0,"(-2.284792035330631e+66, -9.269777780802949e+22, -2.284792035330631e+66, -9.269777780802949e+22, -3.949489932256151e-06, -0.000788945084425775, 0.000741193491568915)"
1623264196.646809,43,1623264196,645962726,,0,0,"(-1.902812530705879e+66, -7.720023987048898e+22, -1.902812530705879e+66, -7.720023987048898e+22, -4.85358610761559e-06, -0.0006566894580784184, 0.0006218268216749863)"
1623264196.6514158,44,1623264196,650591995,,0,0,"(-1.5268005644004263e+66, -6.194481479601415e+22, -1.5268005644004263e+66, -6.194481479601415e+22, -6.688303485457374e-06, -0.0005277639556817582, 0.000502026556821943)"
1623264196.6567001,45,1623264196,655720957,,0,0,"(-1.1859161865731708e+66, -4.811457387017574e+22, -1.1859161865731708e+66, -4.811457387017574e+22, -7.157260056361509e-06, -0.00041052293860182346, 0.000393186876937392)"
1623264196.6616654,46,1623264196,660852586,,0,0,"(-8.936252534758273e+65, -3.6255849070464044e+22, -8.936252534758273e+65, -3.6255849070464044e+22, -6.816916492761797e-06, -0.00031139729979716207, 0.000301344892573454)"
1623264196.6670814,47,1623264196,665973868,,0,0,"(-6.534114892398795e+65, -2.650998082545683e+22, -6.534114892398795e+65, -2.650998082545683e+22, -6.04923765379559e-06, -0.0002319391068191964, 0.00022738241983839808)"
1623264196.6721134,48,1623264196,671012218,,0,0,"(-4.628388227766888e+65, -1.877813371687213e+22, -4.628388227766888e+65, -1.877813371687213e+22, -5.972406440868569e-06, -0.00016702450245423164, 0.00016757618511967245)"
1623264196.6760826,49,1623264196,675499112,,0,0,"(-3.1634083494319675e+65, -1.283446894759819e+22, -3.1634083494319675e+65, -1.283446894759819e+22, -7.15822143258723e-06, -0.00011362082592397763, 0.00011863202880496346)"
1623264196.6811604,50,1623264196,680467132,,0,0,"(-2.0705721451753547e+65, -8.400652386779798e+21, -2.0705721451753547e+65, -8.400652386779798e+21, -7.221787132856564e-06, -7.284190084402348e-05, 8.319651279972042e-05)"
1623264196.6861868,51,1623264196,685574776,,0,0,"(-1.2797801029179542e+65, -5.192278762747714e+21, -1.2797801029179542e+65, -5.192278762747714e+21, -4.913884117800926e-06, -4.370715816698382e-05, 6.16189625729946e-05)"
1623264196.6913424,52,1623264196,690544846,,0,0,"(-7.260112339309459e+64, -2.945547209915923e+21, -7.260112339309459e+64, -2.945547209915923e+21, -2.331313246631048e-06, -2.3595803811535677e-05, 4.91312292511558e-05)"
1623264196.6959405,53,1623264196,695485873,,0,0,"(-3.5259939506760387e+64, -1.4305538479562938e+21, -3.5259939506760387e+64, -1.4305538479562938e+21, -1.5457680490856953e-06, -1.0268598244625598e-05, 4.119576215956668e-05)"
1623264196.7010355,54,1623264196,700482117,,0,0,"(-1.1237388636698931e+64, -4.559193742271497e+20, -1.1237388636698931e+64, -4.559193742271497e+20, -1.8393098664937765e-06, -1.8904949159890188e-06, 3.486984272568488e-05)"
1623264196.7061856,55,1623264196,705520287,,0,0,"(3.249990840618551e+63, 1.3185748381613398e+20, 3.249990840618551e+63, 1.3185748381613398e+20, -9.825333368816032e-07, 2.990746899289939e-06, 2.9984405788056226e-05)"
1623264196.7111416,56,1623264196,710532676,,0,0,"(1.1139901865399197e+64, 4.5196417527454636e+20, 1.1139901865399197e+64, 4.5196417527454636e+20, 4.50134667324123e-07, 5.488953449398517e-06, 2.6866223697789916e-05)"
1623264196.7165563,57,1623264196,715684043,,0,0,"(1.4645244546984205e+64, 5.941817040534991e+20, 1.4645244546984205e+64, 5.941817040534991e+20, 1.2194983048787312e-06, 6.43314195506685e-06, 2.4466628301139034e-05)"
1623264196.721264,58,1623264196,720511285,,0,0,"(1.5383511176634077e+64, 6.241343977517044e+20, 1.5383511176634077e+64, 6.241343977517044e+20, 6.832345401552445e-07, 6.42179027546199e-06, 2.1590192574605562e-05)"
1623264196.7267568,59,1623264196,725943208,,0,0,"(1.450000622307627e+64, 5.8828914592538244e+20, 1.450000622307627e+64, 5.8828914592538244e+20, -3.1455725483021336e-06, 5.872896333590991e-06, 1.9228802278534604e-05)"
1623264196.7318406,60,1623264196,730971013,,0,0,"(1.2777177040700655e+64, 5.1839112707749315e+20, 1.2777177040700655e+64, 5.1839112707749315e+20, -7.639643268939447e-06, 5.067435937967119e-06, 1.8440683381596198e-05)"
1623264196.7365644,61,1623264196,735743902,,0,0,"(1.0726881192503215e+64, 4.352072459898514e+20, 1.0726881192503215e+64, 4.352072459898514e+20, -7.791703392695762e-06, 4.185429018196619e-06, 1.7522240937214298e-05)"
1623264196.741673,62,1623264196,740660414,,0,0,"(8.665243074836528e+63, 3.5156319033978146e+20, 8.665243074836528e+63, 3.5156319033978146e+20, -5.483948016431497e-06, 3.3347934970454622e-06, 1.715069314673813e-05)"
1623264196.7470353,63,1623264196,745970992,,0,0,"(6.771374925192097e+63, 2.7472583874771888e+20, 6.771374925192097e+63, 2.7472583874771888e+20, -3.7201265706393072e-06, 4.741743357294045e-06, 1.7661490691938626e-05)"
1623264196.7511473,64,1623264196,750552868,,0,0,"(5.132043889954891e+63, 2.082154773194697e+20, 5.132043889954891e+63, 2.082154773194697e+20, -2.4118460025027023e-06, 7.302115368249797e-06, 1.7000107703820763e-05)"
1623264196.7566297,65,1623264196,755695401,,0,0,"(3.7746455368057695e+63, 1.5314358937891432e+20, 3.7746455368057695e+63, 1.5314358937891432e+20, -6.039850770207617e-07, 5.960120031717283e-06, 1.573301948194714e-05)"
1623264196.7613196,66,1623264196,760560096,,0,0,"(2.6908018647661894e+63, 1.0917026562088385e+20, 2.6908018647661894e+63, 1.0917026562088385e+20, 1.332694258991652e-06, 2.532287195189708e-06, 1.4231622335407395e-05)"
1623264196.7662416,67,1623264196,765497947,,0,0,"(1.852682185307419e+63, 7.516636915169701e+19, 1.852682185307419e+63, 7.516636915169701e+19, -2.9050972408679687e-07, 9.283521316490589e-07, 1.2725013027067017e-05)"
1623264196.7712963,68,1623264196,770529666,,0,0,"(1.2238441807296806e+63, 4.965337509175582e+19, 1.2238441807296806e+63, 4.965337509175582e+19, -3.7827861882640302e-06, 1.571313274412052e-06, 1.24272574663946e-05)"
1623264196.7764575,69,1623264196,775579426,,0,0,"(7.660709456329081e+62, 3.108076061425378e+19, 7.660709456329081e+62, 3.108076061425378e+19, -3.696095835684466e-06, 2.342682721088314e-06, 1.2294148498894809e-05)"
1623264196.7814214,70,1623264196,780532751,,0,0,"(4.433739612061772e+62, 1.7988412208294306e+19, 4.433739612061772e+62, 1.7988412208294306e+19, -7.329537937715746e-07, 2.037724478708193e-06, 1.2265071957372432e-05)"
1623264196.7862325,71,1623264196,785511518,,0,0,"(2.240607503651439e+62, 9.090513854947928e+18, 2.240607503651439e+62, 9.090513854947928e+18, 1.865687088593789e-06, 6.743994143967693e-08, 1.3381596463238998e-05)"
1623264196.7919035,72,1623264196,790983716,,0,0,"(8.153720022662309e+61, 3.308098572132008e+18, 8.153720022662309e+61, 3.308098572132008e+18, 2.3057366618523897e-06, -3.758435712731623e-06, 1.5048424302850486e-05)"
1623264196.7963264,73,1623264196,795614537,,0,0,"(-5.67098049177862e+60, -2.3008102332814848e+17, -5.67098049177862e+60, -2.3008102332814848e+17, -2.431034512145712e-07, -5.0542793295092226e-06, 1.7968099679441237e-05)"
1623264196.8011458,74,1623264196,800488676,,0,0,"(-5.433867860629284e+61, -2.204609731624585e+18, -5.433867860629284e+61, -2.204609731624585e+18, -3.3942094846397383e-06, -3.7313067207305875e-06, 2.0263649347317397e-05)"
1623264196.8065553,75,1623264196,805686228,,0,0,"(-7.717529924749068e+61, -3.131129061764668e+18, -7.717529924749068e+61, -3.131129061764668e+18, -3.1480761750421213e-06, -5.024787927716114e-07, 2.0930016726287935e-05)"
1623264196.8113441,76,1623264196,810540228,,0,0,"(-8.352545901591114e+61, -3.3887655075137833e+18, -8.352545901591114e+61, -3.3887655075137833e+18, -2.7434245355272785e-06, 3.527643739318561e-06, 2.1706470768381416e-05)"
1623264196.8164446,77,1623264196,815650728,,0,0,"(-8.004811525216385e+61, -3.247683940968768e+18, -8.004811525216385e+61, -3.247683940968768e+18, -4.0188492289363905e-06, 3.3327942181876895e-06, 2.1394855481120532e-05)"
1623264196.8210952,78,1623264196,820524659,,0,0,"(-7.132617170580461e+61, -2.8938203190669133e+18, -7.132617170580461e+61, -2.8938203190669133e+18, -4.3981213266893204e-06, 7.733931215623994e-07, 1.8327342641831353e-05)"
1623264196.8269475,79,1623264196,825947655,,0,0,"(-6.038540575460134e+61, -2.4499354159722004e+18, -6.038540575460134e+61, -2.4499354159722004e+18, -5.9755470113787755e-06, 3.4922051246786273e-07, 1.5049390304455637e-05)"
1623264196.8312814,80,1623264196,830556369,,0,0,"(-4.9118455500752285e+61, -1.9928166782248988e+18, -4.9118455500752285e+61, -1.9928166782248988e+18, -8.094943427414037e-06, -4.6207782129661453e-07, 1.4640554436685635e-05)"
1623264196.836443,81,1623264196,835527105,,0,0,"(-3.8619485350603273e+61, -1.566856158780593e+18, -3.8619485350603273e+61, -1.566856158780593e+18, -6.8702769562334295e-06, -3.590066530024213e-06, 1.4257871660817763e-05)"
1623264196.8411734,82,1623264196,840507036,,0,0,"(-2.9440242138252685e+61, -1.194439135880212e+18, -2.9440242138252685e+61, -1.194439135880212e+18, -2.1292711695659925e-06, -4.506834576687017e-06, 1.4464020577891978e-05)"
1623264196.8469052,83,1623264196,845975915,,0,0,"(-2.1780179376461846e+61, -8.836577672007247e+17, -2.1780179376461846e+61, -8.836577672007247e+17, 7.224306014796629e-07, -2.474713218101495e-06, 1.8237157514733907e-05)"
1623264196.851127,84,1623264196,850548822,,0,0,"(-1.5623363932037032e+61, -6.338656192734656e+17, -1.5623363932037032e+61, -6.338656192734656e+17, 5.332710996059495e-07, -2.2049563168577462e-06, 2.2076455339383518e-05)"
1623264196.8564372,85,1623264196,855675229,,0,0,"(-1.0833826041418326e+61, -4.395461747365979e+17, -1.0833826041418326e+61, -4.395461747365979e+17, 3.816195694887705e-07, -4.034710098115428e-06, 2.2917906443133732e-05)"
1623264196.8611922,86,1623264196,860538201,,0,0,"(-7.219434857168881e+60, -2.929043685118278e+17, -7.219434857168881e+60, -2.929043685118278e+17, -1.47130942376249e-06, -3.640521720565967e-06, 2.1456065122603673e-05)"
1623264196.866014,87,1623264196,865505903,,0,0,"(-4.57264029672737e+60, -1.8551955174367904e+17, -4.57264029672737e+60, -1.8551955174367904e+17, -4.126474234924636e-06, -1.4845506654616895e-06, 1.9903209952245953e-05)"
1623264196.8713815,88,1623264196,870564420,,0,0,"(-2.694735968680667e+60, -1.093298786994026e+17, -2.694735968680667e+60, -1.093298786994026e+17, -5.274216448120076e-06, -1.4412730283548383e-07, 1.951377431234203e-05)"
1623264196.8759813,89,1623264196,875471392,,0,0,"(-1.4087856185397345e+60, -5.715675397460904e+16, -1.4087856185397345e+60, -5.715675397460904e+16, -5.4754819562437936e-06, 1.1652178481224744e-06, 2.0898393634518714e-05)"
1623264196.8811018,90,1623264196,880497322,,0,0,"(-5.650688297030587e+59, -2.2925773554911016e+16, -5.650688297030587e+59, -2.2925773554911016e+16, -5.1263516254371375e-06, 2.8882033512195765e-06, 2.370857633592526e-05)"
1623264196.886129,91,1623264196,885519201,,0,0,"(-4.1850860321112684e+58, -1697958366069840.0, -4.1850860321112684e+58, -1697958366069840.0, -4.496535594229165e-06, 4.156980383786615e-06, 2.4915714821697027e-05)"
1623264196.891882,92,1623264196,890980023,,0,0,"(2.565476689884565e+59, 1.0408561676213848e+16, 2.565476689884565e+59, 1.0408561676213848e+16, -4.6285662607562065e-06, 5.062602038743008e-06, 2.403394101061705e-05)"
1623264196.8964584,93,1623264196,895607970,,0,0,"(4.030397070864293e+59, 1.6351985054913456e+16, 4.030397070864293e+59, 1.6351985054913456e+16, -6.045611021499374e-06, 5.145295496961895e-06, 2.31329661022075e-05)"
1623264196.901286,94,1623264196,900482692,,0,0,"(4.515485230184737e+59, 1.8320067651257144e+16, 4.515485230184737e+59, 1.8320067651257144e+16, -6.333478361392408e-06, 2.047425255492053e-06, 2.1754530684287342e-05)"
1623264196.9060001,95,1623264196,905503109,,0,0,"(4.407403199672892e+59, 1.7881561043456402e+16, 4.407403199672892e+59, 1.7881561043456402e+16, -5.093847936114158e-06, -1.497643486816233e-06, 1.91399361389808e-05)"
1623264196.9111664,96,1623264196,910537277,,0,0,"(3.9741665383381687e+59, 1.6123848518653746e+16, 3.9741665383381687e+59, 1.6123848518653746e+16, -3.964930300151311e-06, -1.7426927344542114e-06, 1.7133099711865345e-05)"
1623264196.91648,97,1623264196,915569610,,0,0,"(3.39428549429874e+59, 1.377117556880791e+16, 3.39428549429874e+59, 1.377117556880791e+16, -2.1269499456437613e-06, -1.0729222623987007e-07, 1.5638302012949427e-05)"
1623264196.9214823,98,1623264196,920641066,,0,0,"(2.7807488890332317e+59, 1.1281956461224454e+16, 2.7807488890332317e+59, 1.1281956461224454e+16, -4.464037284498046e-08, 1.9069424466878743e-06, 1.4017565943039761e-05)"
1623264196.9267445,99,1623264196,925907624,,0,0,"(2.200075484462624e+59, 8926068774136602.0, 2.200075484462624e+59, 8926068774136602.0, 1.1326305711401662e-06, 2.8809845259649155e-06, 1.4089053541579902e-05)"
1623264196.931752,100,1623264196,930930264,,0,0,"(1.6869761847800604e+59, 6844340365601299.0, 1.6869761847800604e+59, 6844340365601299.0, 1.7004079137743923e-06, 2.6447694583430954e-06, 1.564894434211593e-05)"
1623264196.9365726,101,1623264196,935673738,,0,0,"(1.255304068323697e+59, 5092975457179642.0, 1.255304068323697e+59, 5092975457179642.0, 1.876736562056072e-06, 2.2882253924870712e-06, 1.737409447433815e-05)"
1623264196.9415262,102,1623264196,940537847,,0,0,"(9.059873695765841e+58, 3675740049126050.5, 9.059873695765841e+58, 3675740049126050.5, 1.8175658155859223e-06, 2.435753900042076e-06, 1.796311158323716e-05)"
1623264196.946087,103,1623264196,945465446,,0,0,"(6.325920237373755e+58, 2566530080320958.0, 6.325920237373755e+58, 2566530080320958.0, 1.6306763656313178e-06, 3.3966579901669725e-06, 1.677757791099413e-05)"
1623264196.9511697,104,1623264196,950500425,,0,0,"(4.250784253061042e+58, 1724613216900922.0, 4.250784253061042e+58, 1724613216900922.0, 1.3875981133333931e-06, 3.1094761266892075e-06, 1.577665141634298e-05)"
1623264196.956024,105,1623264196,955420861,,0,0,"(2.7222316211791126e+58, 1104454226292554.5, 2.7222316211791126e+58, 1104454226292554.5, 1.133388913080155e-06, 1.601422401410082e-06, 1.4964317305009464e-05)"
1623264196.961729,106,1623264196,960755322,,0,0,"(1.6308380516092168e+58, 661657870875196.8, 1.6308380516092168e+58, 661657870875196.8, -1.707668515100356e-06, 1.1580291268109618e-06, 1.3242373111145034e-05)"
1623264196.9664748,107,1623264196,965661351,,0,0,"(8.78006641749096e+57, 356221762559897.5, 8.78006641749096e+57, 356221762559897.5, -5.76655664321579e-06, 2.4366058411919893e-06, 1.2236807141421063e-05)"
1623264196.9712076,108,1623264196,970560276,,0,0,"(3.795715548110597e+57, 153998434457211.0, 3.795715548110597e+57, 153998434457211.0, -4.964776479764846e-06, 4.577599618371402e-06, 1.3887954979706254e-05)"
1623264196.9763348,109,1623264196,975594972,,0,0,"(6.660979744102266e+56, 27024692433905.312, 6.660979744102266e+56, 27024692433905.312, -2.358289515751533e-06, 5.939232149778316e-06, 1.7982330670633838e-05)"
1623264196.9813652,110,1623264196,980498388,,0,0,"(-1.153889743572324e+57, -46815208303699.88, -1.153889743572324e+57, -46815208303699.88, -2.423811134054341e-06, 6.2048581663062225e-06, 2.2024191926117304e-05)"
1623264196.9862096,111,1623264196,985495434,,0,0,"(-2.0820786100632174e+57, -84473360108927.8, -2.0820786100632174e+57, -84473360108927.8, -2.255978847772849e-06, 4.204101370286723e-06, 2.2441462437041097e-05)"
1623264196.9915216,112,1623264196,990782254,,0,0,"(-2.4292770673764442e+57, -98559773644001.56, -2.4292770673764442e+57, -98559773644001.56, -1.1039926351224126e-06, 1.1598154894770346e-08, 1.9696303473687355e-05)"
1623264196.9963975,113,1623264196,995674674,,0,0,"(-2.4197239469168028e+57, -98172187805094.22, -2.4197239469168028e+57, -98172187805094.22, -1.228344177123759e-06, -3.9773901522593844e-06, 1.7569872887337908e-05)"
1623264197.0011292,114,1623264197,492711,,0,0,"(-2.2099280520704676e+57, -89660422644512.0, -2.2099280520704676e+57, -89660422644512.0, -1.194655927245524e-06, -6.431176852558448e-06, 1.7598047817083873e-05)"
1623264197.0063803,115,1623264197,5512004,,0,0,"(-1.9050069960476087e+57, -77289272945494.97, -1.9050069960476087e+57, -77289272945494.97, -2.0792538620709715e-07, -6.728970730476981e-06, 1.937985017569365e-05)"
1623264197.0110805,116,1623264197,10523803,,0,0,"(-1.5722364639466584e+57, -63788224110960.73, -1.5722364639466584e+57, -63788224110960.73, 3.65718387682167e-07, -5.244818331886593e-06, 2.0373117722066138e-05)"
1623264197.0160503,117,1623264197,15424673,,0,0,"(-1.2518827828186194e+57, -50790947381179.945, -1.2518827828186194e+57, -50790947381179.945, 6.581043040855976e-07, -3.96534506341454e-06, 1.9211810923361958e-05)"
1623264197.0210195,118,1623264197,20448377,,0,0,"(-9.655893731639584e+56, -39175551990399.68, -9.655893731639584e+56, -39175551990399.68, -9.953837854773457e-08, -3.992836519116345e-06, 1.693438324431442e-05)"
1623264197.026076,119,1623264197,25508930,,0,0,"(-7.226762072944901e+56, -29320164572982.336, -7.226762072944901e+56, -29320164572982.336, -3.120154613753144e-06, -4.21278963497164e-06, 1.530387905528791e-05)"
1623264197.0313258,120,1623264197,30541813,,0,0,"(-5.247309660697744e+56, -21289199957618.52, -5.247309660697744e+56, -21289199957618.52, -6.294087299194148e-06, -3.43909502898011e-06, 1.580197532198775e-05)"
1623264197.0363586,121,1623264197,35637860,,0,0,"(-3.6884962121208516e+56, -14964836931754.004, -3.6884962121208516e+56, -14964836931754.004, -5.815843751389213e-06, -2.736928449131713e-09, 1.637405133010678e-05)"
1623264197.0416539,122,1623264197,40808693,,0,0,"(-2.4984213593512075e+56, -10136507150702.453, -2.4984213593512075e+56, -10136507150702.453, -3.3197920517580424e-06, 4.102123724757381e-06, 1.531321018155401e-05)"
1623264197.0469086,123,1623264197,45801355,,0,0,"(-1.6166861888342698e+56, -6559162269496.435, -1.6166861888342698e+56, -6559162269496.435, -1.6326773523691828e-06, 6.0689090398179805e-06, 1.3421744553744588e-05)"
1623264197.0510674,124,1623264197,50561924,,0,0,"(-9.832047210037293e+55, -3989023567924.79, -9.832047210037293e+55, -3989023567924.79, -5.439678354926552e-07, 6.664618280883111e-06, 1.2848242455439082e-05)"
1623264197.056575,125,1623264197,55609009,,0,0,"(-5.431432442017743e+55, -2203621642162.333, -5.431432442017743e+55, -2203621642162.333, 1.1553490697362497e-07, 5.352807639184398e-06, 1.6318498571870463e-05)"
1623264197.0613556,126,1623264197,60511567,,0,0,"(-2.4926021184964534e+55, -1011289753164.6143, -2.4926021184964534e+55, -1011289753164.6143, 4.774421024895568e-07, 2.5350546748112198e-06, 2.123173220062532e-05)"
1623264197.066967,127,1623264197,65923629,,0,0,"(-6.258354060987944e+54, -253911736918.95068, -6.258354060987944e+54, -253911736918.95068, 6.410642810040432e-07, -8.923589359108737e-07, 2.3290545310161717e-05)"
1623264197.0720935,128,1623264197,70964298,,0,0,"(4.790627696122794e+54, 194363659741.99103, 4.790627696122794e+54, 194363659741.99103, 6.791191901267686e-07, -3.832046874805471e-06, 2.3026028789344812e-05)"
1623264197.0761435,129,1623264197,75493331,,0,0,"(1.0612656997941163e+55, 430572982195.1317, 1.0612656997941163e+55, 430572982195.1317, -1.092031455136346e-06, -4.62324166425211e-06, 2.2559046159671943e-05)"
1623264197.081045,130,1623264197,80515758,,0,0,"(1.2997171070118886e+55, 527316647362.3879, 1.2997171070118886e+55, 527316647362.3879, -3.733149962508052e-06, -4.136800269497409e-06, 2.2558189921257327e-05)"
1623264197.0861475,131,1623264197,85487892,,0,0,"(1.3243012136792531e+55, 537290824540.09265, 1.3243012136792531e+55, 537290824540.09265, -4.906203326127111e-06, -4.054961309402943e-06, 2.1735578192108715e-05)"
1623264197.09186,132,1623264197,90950608,,0,0,"(1.226282133399346e+55, 497522868488.81146, 1.226282133399346e+55, 497522868488.81146, -5.152821925801016e-06, -3.124522648007054e-06, 1.9978574640941267e-05)"
1623264197.0962946,133,1623264197,95500148,,0,0,"(1.0674495907990254e+55, 433081888675.44116, 1.0674495907990254e+55, 433081888675.44116, -4.856508145252561e-06, -1.6915632500297126e-07, 1.9469696805071237e-05)"
1623264197.100913,134,1623264197,100469981,,0,0,"(8.877629765997055e+54, 360180068376.0048, 8.877629765997055e+54, 360180068376.0048, -6.0144794149438605e-06, 1.5106505302454277e-06, 2.024797553079938e-05)"
1623264197.1059477,135,1623264197,105478558,,0,0,"(7.11503378745727e+54, 288668645079.06433, 7.11503378745727e+54, 288668645079.06433, -7.894200508099469e-06, 1.6264180730498085e-07, 2.0601376593885994e-05)"
1623264197.1113062,136,1623264197,110504543,,0,0,"(5.520650651557446e+54, 223981893993.15076, 5.520650651557446e+54, 223981893993.15076, -8.28664809623533e-06, -1.694307047233111e-06, 1.96019507811314e-05)"
1623264197.1165593,137,1623264197,115685284,,0,0,"(4.1557544774456e+54, 168605807101.05008, 4.1557544774456e+54, 168605807101.05008, -7.807779521307768e-06, -2.055907663436171e-06, 1.684102934861069e-05)"
1623264197.1216018,138,1623264197,120824009,,0,0,"(3.0354902361311092e+54, 123154840832.85616, 3.0354902361311092e+54, 123154840832.85612, -6.8783283560071e-06, 6.237988544130651e-07, 1.2778875788156477e-05)"
1623264197.1265657,139,1623264197,125599184,,0,0,"(2.1477270919810257e+54, 87136827197.46082, 2.1477270919810257e+54, 87136827197.46072, -4.038239493415229e-06, 4.249315159191791e-06, 9.410094140192342e-06)"
1623264197.1319983,140,1623264197,130957667,,0,0,"(1.4659875238598361e+54, 59477529532.107056, 1.4659875238598361e+54, 59477529532.1069, -3.6132119018807206e-07, 2.139200634476697e-06, 7.800182880440345e-06)"
1623264197.1365871,141,1623264197,135598103,,0,0,"(9.579455917623527e+53, 38865431183.331505, 9.579455917623527e+53, 38865431183.331314, -1.7275192045216255e-06, -1.3987294161033616e-06, 7.860248010420045e-06)"
1623264197.141339,142,1623264197,140502958,,0,0,"(5.9071025290339195e+53, 23966088346.69658, 5.9071025290339195e+53, 23966088346.696384, -5.820387041881482e-06, 1.061699521164625e-06, 9.399117319672258e-06)"
1623264197.1465168,143,1623264197,145723976,,0,0,"(3.3385054918324555e+53, 13544866907.240479, 3.3385054918324555e+53, 13544866907.240295, -5.901611615477448e-06, 3.983896014967779e-06, 1.0556860523625727e-05)"
1623264197.1519134,144,1623264197,150946558,,0,0,"(1.6089265058579893e+53, 6527679957.00259, 1.6089265058579893e+53, 6527679957.00243, -3.7151854733304125e-06, 4.209653864306057e-06, 1.0317497727867435e-05)"
1623264197.1566184,145,1623264197,155606838,,0,0,"(4.982923606343898e+52, 2021654216.894127, 4.982923606343898e+52, 2021654216.8939896, -2.1691605422107487e-06, 3.981260320839691e-06, 1.1479053304552964e-05)"
1623264197.1612115,146,1623264197,160502436,,0,0,"(-1.6970760770476517e+52, -688531729.2815771, -1.6970760770476517e+52, -688531729.281693, -2.8482899487362883e-06, 2.974455892459286e-06, 1.6584543575832176e-05)"
1623264197.1670103,147,1623264197,165917457,,0,0,"(-5.318271001753617e+52, -2157710181.1461234, -5.318271001753617e+52, -2157710181.1462207, -4.724049202788646e-06, 1.614024967912258e-06, 2.131332008882115e-05)"
1623264197.172011,148,1623264197,170972240,,0,0,"(-6.909746128328013e+52, -2803397864.7030473, -6.909746128328013e+52, -2803397864.7031264, -3.6484228836563148e-06, 1.6923117555187343e-07, 2.1093242513252748e-05)"
1623264197.1764143,149,1623264197,175516951,,0,0,"(-7.222914945390788e+52, -2930455614.2556667, -7.222914945390788e+52, -2930455614.2557287, -1.000389182355854e-06, -2.2845830848773137e-06, 1.9187312427476215e-05)"
1623264197.1812365,150,1623264197,180496531,,0,0,"(-6.789229765665133e+52, -2754502390.473408, -6.789229765665133e+52, -2754502390.4734573, -1.1572088429240632e-06, -4.557980853796957e-06, 1.8661349855400506e-05)"
1623264197.1860473,151,1623264197,185482386,,0,0,"(-5.971286523678887e+52, -2422649338.9362764, -5.971286523678887e+52, -2422649338.9363213, -2.8814751193876763e-06, -4.912358179958945e-06, 1.949927429103787e-05)"
1623264197.191724,152,1623264197,190810549,,0,0,"(-5.005889795334603e+52, -2030971978.210066, -5.005889795334603e+52, -2030971978.2101233, -1.8761298993177418e-06, -4.155321475422301e-06, 1.9950524314132906e-05)"
1623264197.196444,153,1623264197,195646896,,0,0,"(-4.0389489212878e+52, -1638668132.1275444, -4.0389489212878e+52, -1638668132.127634, 5.825775710942837e-07, -3.91942204834119e-06, 1.8519459447496477e-05)"
1623264197.2018945,154,1623264197,200758056,,0,0,"(-3.1528225564857875e+52, -1279152064.1263409, -3.1528225564857875e+52, -1279152064.1264653, 1.9189843432783954e-06, -5.623422706008536e-06, 1.885830699990607e-05)"
1623264197.2061741,155,1623264197,205534844,,0,0,"(-2.387097479999002e+52, -968484782.7956939, -2.387097479999002e+52, -968484782.795833, 7.763670301506421e-07, -7.193187959544827e-06, 2.12495055721017e-05)"
1623264197.2113767,156,1623264197,210554374,,0,0,"(-1.753911895839212e+52, -711590957.5193937, -1.753911895839212e+52, -711590957.5195247, -3.400443441807941e-06, -5.302131304742089e-06, 2.1885507081530558e-05)"
1623264197.2164135,157,1623264197,215569443,,0,0,"(-1.2489097705093573e+52, -506703273.7279264, -1.2489097705093573e+52, -506703273.7280396, -5.46705274887402e-06, -2.7039861497672013e-06, 2.0395097724229862e-05)"
1623264197.221505,158,1623264197,220676255,,0,0,"(-8.588076165734691e+51, -348432401.6800527, -8.588076165734691e+51, -348432401.68014586, -4.436214222559945e-06, -4.6959284784395283e-07, 1.7832240960963857e-05)"
1623264197.2268906,159,1623264197,225956109,,0,0,"(-5.664129741859961e+51, -229803077.1149866, -5.664129741859961e+51, -229803077.1150627, -5.214165490378234e-06, 2.9963442891636777e-06, 1.4881502775525421e-05)"
1623264197.2310362,160,1623264197,230551415,,0,0,"(-3.537828308865887e+51, -143535524.2083352, -3.537828308865887e+51, -143535524.20840284, -5.212105728858938e-06, 4.696473329813103e-06, 1.1961442265104503e-05)"
1623264197.2361877,161,1623264197,235523101,,0,0,"(-2.040669755220079e+51, -82793334.63344444, -2.040669755220079e+51, -82793334.63350812, -3.0369918446172413e-06, 4.174316775480866e-06, 1.2557912527980715e-05)"
1623264197.241284,162,1623264197,240488683,,0,0,"(-1.0245451589390017e+51, -41567485.368039146, -1.0245451589390017e+51, -41567485.368097365, -3.2882816611650535e-06, 3.5274161294465374e-06, 1.8338322340831293e-05)"
1623264197.2461727,163,1623264197,245448277,,0,0,"(-3.6535018754167774e+50, -14822859.14129462, -3.6535018754167774e+50, -14822859.141345933, -3.152112029794549e-06, 1.7813339017133612e-06, 2.3299299588250903e-05)"
1623264197.2521996,164,1623264197,250978739,,0,0,"(3.700751984365101e+49, 1501456.0619308278, 3.700751984365101e+49, 1501456.061882861, 6.582048878632102e-07, 1.0506983684641791e-07, 2.412682634359093e-05)"
1623264197.2561207,165,1623264197,255496456,,0,0,"(2.60632662964821e+50, 10574296.613188654, 2.60632662964821e+50, 10574296.61313253, 2.749931627213973e-06, 2.3505342093701103e-07, 2.255501136083088e-05)"
1623264197.2617152,166,1623264197,260846725,,0,0,"(3.6464055658479674e+50, 14794068.244031765, 3.6464055658479674e+50, 14794068.24395898, 1.962783732679358e-06, 1.3719795680025758e-06, 2.0848330397319574e-05)"
1623264197.2669604,167,1623264197,265949829,,0,0,"(3.924510048468843e+50, 15922383.95674118, 3.924510048468843e+50, 15922383.956655938, 1.353370126332646e-06, 2.4385655880651817e-06, 1.920982088336262e-05)"
1623264197.2713854,168,1623264197,270541260,,0,0,"(3.749705038591197e+50, 15213171.226881128, 3.749705038591197e+50, 15213171.22679444, -8.380459428333812e-07, 2.833643590619138e-06, 1.720539531871914e-05)"
1623264197.2764106,169,1623264197,275514498,,0,0,"(3.3344268644279667e+50, 13528319.24377484, 3.3344268644279667e+50, 13528319.243696284, -3.735885052257645e-06, 3.3586783166651113e-06, 1.6248600611993128e-05)"
1623264197.2811644,170,1623264197,280527465,,0,0,"(2.8187100410386134e+50, 11435971.110237839, 2.8187100410386134e+50, 11435971.110172668, -5.053384018006128e-06, 3.912597437597721e-06, 1.5421268196157706e-05)"
1623264197.286168,171,1623264197,285520563,,0,0,"(2.2899567830336534e+50, 9290732.013290294, 2.2899567830336534e+50, 9290732.013238173, -3.635324911950128e-06, 3.8942360056673925e-06, 1.4194034410821823e-05)"
1623264197.291811,172,1623264197,290983148,,0,0,"(1.798524492842868e+50, 7296910.232604846, 1.798524492842868e+50, 7296910.2325590635, 9.382302129920146e-07, 3.554913071477933e-06, 1.3929623625141438e-05)"
1623264197.2966437,173,1623264197,295641588,,0,0,"(1.3696396487920065e+50, 5556853.747627204, 1.3696396487920065e+50, 5556853.747582356, 3.4364292452402778e-06, 1.9798455000741484e-06, 1.4772906782777252e-05)"
1623264197.3010008,174,1623264197,300471429,,0,0,"(1.0122349554243252e+50, 4106804.012639938, 1.0122349554243252e+50, 4106804.012596694, 1.0867104513200402e-06, -7.00341567455601e-07, 1.6168213204790592e-05)"
1623264197.3061564,175,1623264197,305503898,,0,0,"(7.253060370212223e+49, 2942686.1098494167, 7.253060370212223e+49, 2942686.1098101866, -2.062939803542907e-06, -2.1516162802541493e-06, 1.6672227612198263e-05)"
1623264197.3112369,176,1623264197,310552748,,0,0,"(5.023332552688429e+49, 2038048.79229603, 5.023332552688429e+49, 2038048.7922612913, -3.663674856741271e-06, -2.245964123072181e-06, 1.6090592386974127e-05)"
1623264197.3167534,177,1623264197,315733315,,0,0,"(3.342395703801286e+49, 1356065.0138269993, 3.342395703801286e+49, 1356065.013793931, -4.256282072398616e-06, -4.831197088636589e-07, 1.6572548352790167e-05)"
1623264197.321328,178,1623264197,320533385,,0,0,"(2.112735068300593e+49, 857171.4313635204, 2.112735068300593e+49, 857171.431327682, -4.23068997151964e-06, 3.803718902959854e-06, 1.7070432320022806e-05)"
1623264197.3268464,179,1623264197,325959260,,0,0,"(1.241272862350666e+49, 503604.85424655257, 1.241272862350666e+49, 503604.8542024228, -3.858869362903793e-06, 7.524549040938161e-06, 1.5908951230698695e-05)"
1623264197.331879,180,1623264197,330986209,,0,0,"(6.452947639019121e+48, 261806.71903602523, 6.452947639019121e+48, 261806.71897902514, -3.3233397707114205e-06, 8.985793478091247e-06, 1.391044257482811e-05)"
1623264197.3361008,181,1623264197,335507645,,0,0,"(2.549143478973387e+48, 103422.9514810195, 2.549143478973387e+48, 103422.95141290926, -2.7407910458130797e-06, 7.965674112266189e-06, 1.269257998499405e-05)"
1623264197.3420036,182,1623264197,340877839,,0,0,"(1.3378267289078224e+47, 5427.783488938352, 1.3378267289078224e+47, 5427.783419237123, -4.4730904928945577e-07, 3.4652959945950323e-06, 1.3101067520900115e-05)"
1623264197.3461072,183,1623264197,345546242,,0,0,"(-1.2387120937130082e+48, -50256.59082183818, -1.2387120937130082e+48, -50256.59088329528, 2.616633557078121e-06, -2.6152384071748725e-06, 1.3308058100142673e-05)"
1623264197.3518755,184,1623264197,350877080,,0,0,"(-1.9075476610913913e+48, -77392.35191355905, -1.9075476610913913e+48, -77392.3519646366, 2.3886452651624974e-06, -6.9045662533507735e-06, 1.2300477920038516e-05)"
1623264197.3561723,185,1623264197,355544362,,0,0,"(-2.1233297221315884e+48, -86146.98570072878, -2.1233297221315884e+48, -86146.98574489454, 3.2472661809211487e-07, -7.65503632595177e-06, 1.1236287573761544e-05)"
1623264197.3618956,186,1623264197,360880061,,0,0,"(-2.0655616495301223e+48, -83803.23980360536, -2.0655616495301223e+48, -83803.23984448102, 8.678065898355322e-07, -5.805996154831064e-06, 1.0230094293130816e-05)"
1623264197.3668861,187,1623264197,365982875,,0,0,"(-1.8585126242850875e+48, -75402.91966793075, -1.8585126242850875e+48, -75402.9197100043, 2.8342004847148953e-06, -3.731716131661412e-06, 8.2560829550406e-06)"
1623264197.3717232,188,1623264197,370805348,,0,0,"(-1.584826273341969e+48, -64299.01342159554, -1.584826273341969e+48, -64299.013466753255, 1.9693015860081594e-06, -6.212140358327916e-07, 6.446162291512407e-06)"
1623264197.37606,189,1623264197,375491914,,0,0,"(-1.296706332338447e+48, -52609.51264451637, -1.296706332338447e+48, -52609.51268705561, -2.1533537818586385e-06, 2.268725889326489e-06, 5.424365264111283e-06)"
1623264197.3810601,190,1623264197,380503931,,0,0,"(-1.0247918876889478e+48, -41577.49556051645, -1.0247918876889478e+48, -41577.49559527662, -7.76524754595616e-06, 1.5376688426144732e-06, 6.016569274774327e-06)"
1623264197.3860545,191,1623264197,385523490,,0,0,"(-7.849808072257744e+47, -31847.96486218204, -7.849808072257744e+47, -31847.96489178986, -1.0271880254669311e-05, -6.305031602636851e-07, 1.072088955980321e-05)"
1623264197.3918693,192,1623264197,390985058,,0,0,"(-5.8352043224336195e+47, -23674.385477997723, -5.8352043224336195e+47, -23674.385508704843, -9.081541325915547e-06, -1.2573631816111154e-06, 1.571893065954529e-05)"
1623264197.3964546,193,1623264197,395628775,,0,0,"(-4.2069172401702965e+47, -17068.156470925074, -4.2069172401702965e+47, -17068.15650833082, -7.643531983690014e-06, -9.626507155422283e-07, 1.7207715426769475e-05)"
1623264197.4015534,194,1623264197,400560780,,0,0,"(-2.9338951455221357e+47, -11903.29606044369, -2.9338951455221357e+47, -11903.296110932046, -4.452199203305031e-06, -1.2570060462575282e-06, 1.7676595674024387e-05)"
1623264197.4059505,195,1623264197,405464926,,0,0,"(-1.96862676236267e+47, -7987.043171259398, -1.96862676236267e+47, -7987.043234613107, -2.277591186956074e-06, -1.858468178073802e-06, 1.7531091916441206e-05)"
1623264197.411186,196,1623264197,410552462,,0,0,"(-1.2583385288982735e+47, -5105.286766368495, -1.2583385288982735e+47, -5105.286832163352, -4.330123728689991e-06, -1.4986627251269335e-06, 1.596810990376295e-05)"
1623264197.4164562,197,1623264197,415709180,,0,0,"(-7.517494633912975e+46, -3049.9714500606724, -7.517494633912975e+46, -3049.971508962275, -7.723094856440521e-06, -6.275237894516785e-07, 1.373833507416648e-05)"
1623264197.4217434,198,1623264197,420744981,,0,0,"(-4.0275182566225265e+46, -1634.0305235438818, -4.0275182566225265e+46, -1634.0305725003677, -9.849623232232118e-06, -8.357584390997487e-08, 1.1321150327006997e-05)"
1623264197.4262757,199,1623264197,425546901,,0,0,"(-1.7204835673502106e+46, -698.0285333079639, -1.7204835673502106e+46, -698.0285757766535, -9.349147802245213e-06, -3.1173483633067295e-07, 9.002547098869527e-06)"
1623264197.4321442,200,1623264197,430985779,,0,0,"(-2.7499624212379264e+45, -111.57050589705955, -2.7499624212379264e+45, -111.57054871150137, -7.41048526473924e-06, -2.039275418802283e-06, 6.935369907096599e-06)"
1623264197.436151,201,1623264197,435551183,,0,0,"(5.6284903969031907e+45, 228.35713133743016, 5.6284903969031907e+45, 228.35708543986757, -5.691919617583619e-06, -2.84056992226597e-06, 6.810796901645347e-06)"
1623264197.4411736,202,1623264197,440523229,,0,0,"(9.8747442784724e+45, 400.63464839792493, 9.8747442784724e+45, 400.63460301387727, -4.2425711680114395e-06, -1.426886171070386e-06, 9.41779682938902e-06)"
1623264197.446971,203,1623264197,445984293,,0,0,"(1.1433556310600786e+46, 463.87822000954543, 1.1433556310600786e+46, 463.8781814586335, -3.0673792130035257e-06, 3.210960393910572e-08, 1.1717679232873596e-05)"
1623264197.451309,204,1623264197,450587789,,0,0,"(1.134615755697397e+46, 460.3323057252527, 1.134615755697397e+46, 460.33227699169606, -3.012791059982374e-06, 8.516241389395378e-07, 1.3108430329131636e-05)"
1623264197.4565778,205,1623264197,455662369,,0,0,"(1.0338408653058347e+46, 419.44627074386824, 1.0338408653058347e+46, 419.4462478022415, -4.4611621138455945e-06, 6.997592547385871e-07, 1.3869347102911022e-05)"
1623264197.4617655,206,1623264197,460858988,,0,0,"(8.89712219361327e+45, 360.9709058540889, 8.89712219361327e+45, 360.9708783588798, -4.900533843407396e-06, 1.329600005723787e-08, 1.2042003002905263e-05)"
1623264197.4664423,207,1623264197,465561110,,0,0,"(7.333268912302626e+45, 297.52280355513915, 7.333268912302626e+45, 297.5227573865798, -3.867336289929233e-06, 1.6707657651862097e-07, 9.994912702341937e-06)"
1623264197.4710274,208,1623264197,470515550,,0,0,"(5.832452633973219e+45, 236.63221535942768, 5.832452633973219e+45, 236.63214196768362, -3.8251917018763865e-06, 1.3231561939581858e-06, 1.0165949037746681e-05)"
1623264197.4761047,209,1623264197,475531873,,0,0,"(4.49394645997235e+45, 182.3268148920409, 4.49394645997235e+45, 182.3267220579935, -3.478298295395385e-06, 1.8628958957444852e-06, 9.40354403555448e-06)"
1623264197.48126,210,1623264197,480574170,,0,0,"(3.359984879555408e+45, 136.32012521274146, 3.359984879555408e+45, 136.3200303477663, -2.1221425005347086e-06, 3.844025753574943e-07, 8.178510995005246e-06)"
1623264197.4860919,211,1623264197,485514919,,0,0,"(2.4370900180290426e+45, 98.87675877789702, 2.4370900180290426e+45, 98.87667511842467, -2.0454221450912226e-06, -2.10658042163212e-06, 8.965281543989489e-06)"
1623264197.4917712,212,1623264197,490988938,,0,0,"(1.7111070804440323e+45, 69.42243291323308, 1.7111070804440323e+45, 69.42236372055618, -1.829393765370952e-06, -3.874197239188926e-06, 8.652293958863959e-06)"
1623264197.496343,213,1623264197,495594552,,0,0,"(1.1574244129916061e+45, 46.95861487491755, 1.1574244129916061e+45, 46.95855534521929, -6.862831442560559e-07, -2.3750211442794978e-06, 8.287735400245261e-06)"
1623264197.50114,214,1623264197,500528486,,0,0,"(7.476164577105623e+44, 30.3320320737647, 7.476164577105623e+44, 30.33198030881175, -8.509236296386478e-07, 3.0065781600964276e-06, 1.1176486652589804e-05)"
1623264197.5063324,215,1623264197,505535841,,0,0,"(4.53509624154033e+44, 18.39963385910731, 4.53509624154033e+44, 18.399591384767188, -1.7386478058330822e-06, 5.785427219173628e-06, 1.4570111998468728e-05)"
1623264197.5112143,216,1623264197,510544892,,0,0,"(2.4945235366742746e+44, 10.120694423208782, 2.4945235366742746e+44, 10.120661314547075, -2.092054276512905e-06, 3.610165558222599e-06, 1.6878047976270814e-05)"
1623264197.5163877,217,1623264197,515649769,,0,0,"(1.1338137480124538e+44, 4.600070629678044, 1.1338137480124538e+44, 4.600046137809619, -3.849713930402962e-06, 1.5365525798423267e-06, 1.892191934760989e-05)"
1623264197.521655,218,1623264197,520855126,,0,0,"(2.711946941892886e+43, 1.1002839709120762, 2.711946941892886e+43, 1.1002631515449597, -7.985493921866507e-06, -3.0361517750517684e-07, 1.8475281112234912e-05)"
1623264197.526313,219,1623264197,525549654,,0,0,"(-2.3785003141398164e+43, -0.964992925168215, -2.3785003141398164e+43, -0.9650164212301249, -8.774822953707497e-06, -1.8567705548073447e-06, 1.5578313433327882e-05)"
1623264197.531319,220,1623264197,530552285,,0,0,"(-5.046327070250635e+43, -2.0473748006076504, -5.046327070250635e+43, -2.047409203234344, -3.274279344351813e-06, -2.0334417669833332e-06, 1.4255972266674622e-05)"
1623264197.5362997,221,1623264197,535536802,,0,0,"(-6.123498164796338e+43, -2.4844025601048902, -6.123498164796338e+43, -2.4844586328274887, 1.8374190498899686e-06, -3.044755741135779e-06, 1.555901212122987e-05)"
1623264197.5416048,222,1623264197,540865287,,0,0,"(-6.213247660439801e+43, -2.5208164964324036, -6.213247660439801e+43, -2.520894681136838, 3.6961074283715856e-06, -4.441005116313451e-06, 1.768976107294603e-05)"
1623264197.546192,223,1623264197,545521403,,0,0,"(-5.738947132591751e+43, -2.3283866918758314, -5.738947132591751e+43, -2.3284729021259625, 4.431346187515951e-06, -3.769176402341567e-06, 1.9564219187028626e-05)"
1623264197.5513675,224,1623264197,550571636,,0,0,"(-4.986840057150426e+43, -2.0232464119063853, -4.986840057150426e+43, -2.023325525104239, 3.6045223155925666e-06, -1.988622493675011e-06, 2.1134906533214507e-05)"
1623264197.5562165,225,1623264197,555507981,,0,0,"(-4.14170930328522e+43, -1.6803626838654497, -4.14170930328522e+43, -1.680430028684296, 1.967235329615454e-06, -1.9007150494259235e-06, 2.0234654627070324e-05)"
1623264197.5610092,226,1623264197,560512898,,0,0,"(-3.315548929394321e+43, -1.345174328291498, -3.315548929394321e+43, -1.3452309781208445, 8.783439492669448e-07, -2.774136325463685e-06, 1.6934409243382588e-05)"
1623264197.5661678,227,1623264197,565519696,,0,0,"(-2.5698713852317385e+43, -1.0426397019677012, -2.5698713852317385e+43, -1.0426871661960897, 1.9049146673005905e-07, -3.032006843552668e-06, 1.472748692717149e-05)"
1623264197.5718462,228,1623264197,570999548,,0,0,"(-1.932543447437994e+43, -0.7840646698835435, -1.932543447437994e+43, -0.7841056586433364, -2.132447544118378e-07, -2.379430397877707e-06, 1.3865901230842147e-05)"
1623264197.5763118,229,1623264197,575626872,,0,0,"(-1.4101165279478505e+43, -0.5721071342709209, -1.4101165279478505e+43, -0.5721426373904815, -4.227586919030791e-07, -1.8536360665656072e-07, 1.4920777164142151e-05)"
1623264197.58134,230,1623264197,580555159,,0,0,"(-9.965761720225538e+42, -0.4043279293125306, -9.965761720225538e+42, -0.4043551737017673, -5.051181213362185e-07, 1.608541690676656e-06, 1.805010466136402e-05)"
1623264197.5859768,231,1623264197,585454511,,0,0,"(-6.793344305436304e+42, -0.27561928905062294, -6.793344305436304e+42, -0.27563740959228095, -2.244087715346531e-06, 1.9418589186625867e-06, 1.9915112782433547e-05)"
1623264197.591178,232,1623264197,590528116,,0,0,"(-4.431622147130024e+42, -0.17979994725918966, -4.431622147130024e+42, -0.17981356326266001, -4.769747567141787e-06, 3.0491885168813384e-06, 2.0367302189097113e-05)"
1623264197.5960827,233,1623264197,595483208,,0,0,"(-2.7262851831839726e+42, -0.11061017115473396, -2.7262851831839726e+42, -0.1106260607231935, -4.054937789790621e-06, 3.957408822493045e-06, 2.1068617828884023e-05)"
1623264197.601034,234,1623264197,600520517,,0,0,"(-1.534921156398521e+42, -0.062273730474847494, -1.534921156398521e+42, -0.06230094199888432, -1.5743244580524854e-06, 4.677682384385911e-06, 2.076755516506973e-05)"
1623264197.6061409,235,1623264197,605484522,,0,0,"(-7.338535269637263e+41, -0.029772670404151352, -7.338535269637263e+41, -0.02982022556034407, -4.336285109198937e-08, 7.3992366525239574e-06, 1.8843498622191637e-05)"
1623264197.6110823,236,1623264197,610455439,,0,0,"(-2.2041227882681176e+41, -0.00894135513516129, -2.2041227882681176e+41, -0.009008825244853073, 8.230842443739594e-07, 8.307918395365989e-06, 1.670909705094075e-05)"
1623264197.616016,237,1623264197,615479048,,0,0,"(8.756092988614978e+40, 0.0035525349954907883, 8.756092988614978e+40, 0.0034789986299944772, 1.2418443678371282e-06, 5.40738229859932e-06, 1.5178227814366704e-05)"
1623264197.6211,238,1623264197,620515811,,0,0,"(2.5372441717804794e+41, 0.010292359733832426, 2.5372441717804794e+41, 0.010228662758417209, -3.6229484532830753e-07, 2.231446744004333e-06, 1.465955901486486e-05)"
1623264197.626025,239,1623264197,625488586,,0,0,"(3.2593299180244862e+41, 0.013222245151255543, 3.2593299180244862e+41, 0.01317218498917081, -4.7061656969798435e-06, -2.8864536384263134e-07, 1.6382406774609215e-05)"
1623264197.6310754,240,1623264197,630493181,,0,0,"(3.390926331199695e+41, 0.013757503818870642, 3.390926331199695e+41, 0.01371556340483223, -6.756618907876468e-06, -5.999599723542798e-07, 1.8138418185779992e-05)"
1623264197.6365383,241,1623264197,635696690,,0,0,"(3.178631499120715e+41, 0.012895869801861224, 3.178631499120715e+41, 0.012858253033266352, -3.004107039184674e-06, 2.527842470225915e-06, 1.8137507558706174e-05)"
1623264197.641526,242,1623264197,640770898,,0,0,"(2.7904685290256203e+41, 0.01131979599982439, 2.7904685290256203e+41, 0.011286167339468578, 2.3124991236398722e-07, 4.618756098960375e-06, 1.7146548397347242e-05)"
1623264197.6465402,243,1623264197,645842290,,0,0,"(2.3359848912879052e+41, 0.009476404552124094, 2.3359848912879052e+41, 0.009447865268636465, -5.670281586909187e-07, 2.6961260022338353e-06, 1.4597824596826848e-05)"
1623264197.651969,244,1623264197,650950530,,0,0,"(1.8825194165142856e+41, 0.007637005936735447, 1.8825194165142856e+41, 0.007615913779350804, -1.8358259135463972e-06, -2.414286988209444e-07, 1.1386521602573883e-05)"
1623264197.6562254,245,1623264197,655490839,,0,0,"(1.4679353525954989e+41, 0.005954161729490562, 1.4679353525954989e+41, 0.005940673557865375, -2.395779651351382e-06, -2.5023109569010483e-07, 7.530348643206901e-06)"
1623264197.661594,246,1623264197,660830761,,0,0,"(1.1102861891077974e+41, 0.004503874320694026, 1.1102861891077974e+41, 0.004494727344333384, -2.508956005174926e-06, 2.4767451025865134e-06, 4.721031094046786e-06)"
1623264197.6667833,247,1623264197,665818801,,0,0,"(8.149363772875659e+40, 0.0033071625080550817, 8.149363772875659e+40, 0.003296355911283108, -4.096013524266396e-06, 3.8043220662988823e-06, 5.449798099838625e-06)"
1623264197.6720226,248,1623264197,670941931,,0,0,"(5.796461985136331e+40, 0.0023533666234331046, 5.796461985136331e+40, 0.002329527398916765, -4.64438979297992e-06, 9.78544824986091e-07, 7.026395973184399e-06)"
1623264197.6766133,249,1623264197,675650593,,0,0,"(3.980797578732401e+40, 0.0016170419433379592, 3.980797578732401e+40, 0.0015667312980595619, -1.090631726360736e-06, -2.8646525851029832e-06, 6.779561464688494e-06)"
1623264197.681211,250,1623264197,680497344,,0,0,"(2.6212797261894056e+40, 0.0010654775012134804, 2.6212797261894056e+40, 0.0009871524776791393, 2.739473290059859e-06, -4.246749358904032e-06, 7.1522525009347646e-06)"
1623264197.6862938,251,1623264197,685500535,,0,0,"(1.633675026723744e+40, 0.0006646307292464046, 1.633675026723744e+40, 0.0005738831349412342, 2.9313049734427123e-06, -4.6668848115612426e-06, 9.467891997959006e-06)"
1623264197.6912374,252,1623264197,690521293,,0,0,"(9.390948857916268e+39, 0.00038150092703630515, 9.390948857916268e+39, 0.000296839244481382, -6.786691596847215e-07, -5.051173246721099e-06, 9.972076087547005e-06)"
1623264197.6967683,253,1623264197,695634358,,0,0,"(4.683271202978779e+39, 0.0001886294209904317, 4.683271202978779e+39, 0.00011888460659783613, -4.390989055165222e-06, -3.2147498588930693e-06, 8.87203182064685e-06)"
1623264197.701801,254,1623264197,700816403,,0,0,"(1.6345962561037245e+39, 6.508395385265597e-05, 1.6345962561037245e+39, 7.469462311582672e-06, -4.376926244870367e-06, -2.819655060654494e-07, 9.12987572015985e-06)"
1623264197.7061744,255,1623264197,705506210,,0,0,"(-2.215919785212359e+38, -8.955539629822542e-06, -2.215919785212359e+38, -5.920188352996251e-05, -2.2640228998552708e-06, -7.734013141729639e-07, 1.0671962847292546e-05)"
1623264197.7119293,256,1623264197,711002714,,0,0,"(-1.2489400551734212e+39, -4.9924462494429756e-05, -1.2489400551734212e+39, -9.177375202715224e-05, -2.6172492707602425e-06, -1.5267832068719044e-06, 1.2806535603964213e-05)"
1623264197.7166564,257,1623264197,715743379,,0,0,"(-1.722401806424995e+39, -6.879528738305188e-05, -1.722401806424995e+39, -0.00010129350732831526, -6.065666757485039e-06, 3.456683251575906e-07, 1.3469389794386499e-05)"
1623264197.7214122,258,1623264197,720584958,,0,0,"(-1.843720267958566e+39, -7.36184180014567e-05, -1.843720267958566e+39, -9.755865932706105e-05, -9.23186034427034e-06, 2.8718349056806616e-07, 1.1079791194542447e-05)"
1623264197.727021,259,1623264197,725994898,,0,0,"(-1.7563372866915788e+39, -7.011742829530129e-05, -1.7563372866915788e+39, -8.829588068570712e-05, -8.501079726505253e-06, -1.3963179857949853e-06, 8.255358875686199e-06)"
1623264197.7312634,260,1623264197,730577872,,0,0,"(-1.5587210698631493e+39, -6.222107827128821e-05, -1.5587210698631493e+39, -7.941207975357396e-05, -5.635867075537903e-06, -2.227109369264485e-06, 7.59153339510144e-06)"
1623264197.7361422,261,1623264197,735473358,,0,0,"(-1.3156762762125146e+39, -5.251475651014883e-05, -1.3156762762125146e+39, -7.203410024103735e-05, -3.545053021676537e-06, -3.0489318380745578e-06, 7.659646150379652e-06)"
1623264197.7410781,262,1623264197,740539090,,0,0,"(-1.0675617069791773e+39, -4.260837831588785e-05, -1.0675617069791773e+39, -6.937958579114441e-05, -3.320568222892076e-07, -2.1699929160120767e-06, 7.050963997416794e-06)"
1623264197.7459617,263,1623264197,745469732,,0,0,"(-8.375501231776147e+38, -3.342612275941978e-05, -8.375501231776147e+38, -7.503285505758108e-05, 1.5067005389721507e-06, 2.302982346546691e-06, 7.738570774063724e-06)"
1623264197.7509828,264,1623264197,750473610,,0,0,"(-6.371713986794458e+38, -2.5427645241444495e-05, -6.371713986794458e+38, -8.32641774826014e-05, -2.790016826658137e-06, 6.797254367907293e-06, 1.0724904191309954e-05)"
1623264197.7563076,265,1623264197,755487563,,0,0,"(-4.704199638450315e+38, -1.877198513565654e-05, -4.704199638450315e+38, -8.249532964886994e-05, -6.710994260827634e-06, 8.755817299164712e-06, 1.2044611728519255e-05)"
1623264197.7611737,266,1623264197,760484147,,0,0,"(-3.3670615878450753e+38, -1.34353323477713e-05, -3.3670615878450753e+38, -7.075695051789268e-05, -4.883307180246845e-06, 1.0746190945947878e-05, 1.0687313853340626e-05)"
1623264197.7665188,267,1623264197,765784624,,0,0,"(-2.3290674109304446e+38, -9.292842128672372e-06, -2.3290674109304446e+38, -5.54535400195602e-05, -3.440772135279077e-06, 1.096006858959675e-05, 1.0103091769461818e-05)"
1623264197.7716987,268,1623264197,770943066,,0,0,"(-1.5473449419785993e+38, -7.256807252211589e-06, -1.5473449419785993e+38, -4.160187139382443e-05, -4.072380354684139e-06, 5.275877653836685e-06, 1.000389545496549e-05)"
1623264197.7764585,269,1623264197,775592700,,0,0,"(-9.760840913172678e+37, -6.5798788125269105e-06, -9.760840913172678e+37, -3.1365764073633345e-05, -4.084303089584979e-06, -1.0839779031037456e-06, 1.0729170278146894e-05)"
1623264197.781178,270,1623264197,780493465,,0,0,"(-5.71689002777616e+37, -5.642539603316282e-06, -5.71689002777616e+37, -2.403195161518632e-05, -5.481217094106084e-06, -3.493016669203843e-06, 1.3484093489617666e-05)"
1623264197.7866948,271,1623264197,785908200,,0,0,"(-2.954945344974522e+37, -5.721157894934815e-06, -2.954945344974522e+37, -1.732700787096773e-05, -5.805418181970231e-06, -4.013800894281092e-06, 1.6066580285453036e-05)"
1623264197.791862,272,1623264197,790908308,,0,0,"(-1.1488061601193317e+37, -5.282154801407324e-06, -1.1488061601193317e+37, -1.100013243231879e-05, -3.7624703848606673e-06, -4.509981515325683e-06, 1.8333727394126762e-05)"
1623264197.796544,273,1623264197,795608947,,0,0,"(-3.389579467582279e+35, -2.4214690469473832e-06, -3.389579467582279e+35, -6.5043281653019386e-06, -2.2933091489956126e-06, -3.8658639732055226e-06, 1.968888811310353e-05)"
1623264197.801708,274,1623264197,800816593,,0,0,"(5.972830177769958e+36, 4.787793418395883e-07, 5.972830177769958e+36, -6.673780447217996e-06, -1.2716202951508285e-06, -4.654907316438547e-07, 1.878933068272347e-05)"
1623264197.8067338,275,1623264197,805737539,,0,0,"(9.025312045161263e+36, 2.072788138470373e-06, 9.025312045161263e+36, -1.3795134513941128e-05, -2.3236437407952063e-06, 1.4901364062583184e-06, 1.8863149992748865e-05)"
1623264197.812005,276,1623264197,810948187,,0,0,"(9.983123563005887e+36, 2.795998818478991e-06, 9.983123563005887e+36, -2.9653295589340465e-05, -2.720223212116784e-06, -2.444374293511157e-07, 2.0563802917913044e-05)"
1623264197.816399,277,1623264197,815609182,,0,0,"(9.67955574414918e+36, 2.9673702369920325e-06, 9.67955574414918e+36, -4.963725162770376e-05, 7.565322470398182e-07, -2.8276003623111792e-06, 2.249583735448871e-05)"
1623264197.8212128,278,1623264197,820504851,,0,0,"(8.690773593604855e+36, 3.897788379694632e-06, 8.690773593604855e+36, -6.212672651394499e-05, 2.6519716922525467e-06, -5.128020734300518e-06, 2.385230335390846e-05)"
